{
  "positions": [
    {
      "lat": 37.566826005485716,
      "lng": 126.9786567859313,
      "name":"서울특별시"
    },
    {
      "lat": 37.455925200122365,
      "lng": 126.70526742296053,
      "name":"인천광역시"
    },
    {
      "lat": 36.35053889930785,
      "lng": 127.38483484675275,
      "name":"대전광역시"
    },
    {
      "lat": 35.160082060243084,
      "lng": 126.8515729213636,
      "name":"광주"
    },
    {
      "lat": 37.2749769872529,
      "lng": 127.00892996953034,
      "name":"경기도"
    },
    
    {
      "lat": 36.63535819601533,
      "lng": 127.49145732650358,
      "name":"충청북도"
    },
    {
      "lat": 36.65882925330591,
      "lng": 126.67277619381971,
      "name":"충청남도"
    },
    {
      "lat": 36.480068515997694,
      "lng": 127.28919533809494,
      "name":"세종특별자치시"
    },
    {
      "lat": 36.57599982894105,
      "lng": 128.50579932539114,
      "name":"경상북도"
    },
    {
      "lat": 35.23777421049519,
      "lng": 128.69189688916975,
      "name":"경상남도"
    },
    {
      "lat": 35.53948278776425,
      "lng": 129.31146791909438,
      "name":"울산광역시"
    },
    {
      "lat": 35.179820052333426,
      "lng": 129.07508749216157,
      "name":"부산광역시"
    },
    {
      "lat": 35.871380264652295,
      "lng": 128.6018054910818,
      "name":"대구광역시"
    },
    {
      "lat": 35.82019636395981,
      "lng": 127.10897671201185,
      "name":"전라북도"
    },
    {
      "lat": 35.82019636395981,
      "lng": 127.10897671201185,
      "name":"전라북도"
    },
    {
      "lat": 34.811823882052146,
      "lng": 126.39226600466537,
      "name":"전라남도"
    },
    {
      "lat": 37.88532578582254,
      "lng": 127.72982901035823,
      "name":"강원도"
    }
        
  ]
}